[
    {
        "Name": "Hospital Enche' Besar Hajjah Kalsom, Kluang",
        "Clinic": "0",
        "Hospital": "1",
        "ST": "0",
        "VAC": "0",
        "Latitude": "",
        "Longitude": "",
        "Address": "KM 5, Jln Kota Tinggi\n\n86000 Kluang\nJohor",
        "Contact": "07-7787000",
        "State": "Johor"
    },
    {
        "Name": "Hospital Sultan Ismail",
        "Clinic": "0",
        "Hospital": "1",
        "ST": "0",
        "VAC": "0",
        "Latitude": "1.54783705",
        "Longitude": "103.7907985",
        "Address": "Jalan Persiaran Mutiara Emas Utama, Taman Miount Austin\nJohor Bahru, Johor\n81100 Johor Bahru\nJohor",
        "Contact": "07-3565000",
        "State": "Johor"
    },
    {
        "Name": "Hospital Temenggong Seri Maharaja Tun Ibrahim",
        "Clinic": "0",
        "Hospital": "1",
        "ST": "0",
        "VAC": "0",
        "Latitude": "1.64035735",
        "Longitude": "103.6220774",
        "Address": "Hospital Temenggong Seri Maharaja Tun Ibrahim, 81000 Kulai\nKulaijaya, Johor\n81000 Kulaijaya\nJohor",
        "Contact": "07-6623333",
        "State": "Johor"
    },
    {
        "Name": "Hospital Kota Tinggi",
        "Clinic": "0",
        "Hospital": "1",
        "ST": "0",
        "VAC": "0",
        "Latitude": "1.73563835",
        "Longitude": "103.8986371",
        "Address": "Jalan Tun Habah\nKota Tinggi, Johor\n81900 Kota Tinggi\nJohor",
        "Contact": "07-8831131\/32",
        "State": "Johor"
    },
    {
        "Name": "Hospital Tangkak",
        "Clinic": "0",
        "Hospital": "1",
        "ST": "0",
        "VAC": "0",
        "Latitude": "2.27062515",
        "Longitude": "102.5483355",
        "Address": "Jalan Hospital,  Tangkak Muar\nTangkak, Johor\n84900 Tangkak\nJohor",
        "Contact": "06-9782792",
        "State": "Johor"
    },
    {
        "Name": "Hospital Pakar Sultanah Fatimah",
        "Clinic": "0",
        "Hospital": "1",
        "ST": "0",
        "VAC": "0",
        "Latitude": "2.05641585",
        "Longitude": "102.5767931",
        "Address": "Jalan Salleh\nMuar, Johor\n84000 Muar\nJohor",
        "Contact": "06-9521901",
        "State": "Johor"
    },
    {
        "Name": "Hospital Mersing",
        "Clinic": "0",
        "Hospital": "1",
        "ST": "0",
        "VAC": "0",
        "Latitude": "2.4287143",
        "Longitude": "103.8459042",
        "Address": "Jalan Ismail\nMersing, Johor\n86800 Mersing\nJohor",
        "Contact": "07-7993333",
        "State": "Johor"
    },
    {
        "Name": "Hospital Sultanah Nora Ismail",
        "Clinic": "0",
        "Hospital": "1",
        "ST": "0",
        "VAC": "0",
        "Latitude": "1.83732065",
        "Longitude": "102.94181",
        "Address": "Jalan Korma,83000 Batu Pahat\nBatu Pahat, Johor\n83000 Batu Pahat\nJohor",
        "Contact": "07-4363000",
        "State": "Johor"
    },
    {
        "Name": "Hospital Pontian",
        "Clinic": "0",
        "Hospital": "1",
        "ST": "0",
        "VAC": "0",
        "Latitude": "1.49920355",
        "Longitude": "103.3859318",
        "Address": "Jalan Alsagoff\nPontian, Johor\n82000 Pontian\nJohor",
        "Contact": "07-6873333",
        "State": "Johor"
    },
    {
        "Name": "Hospital Sultanah Aminah",
        "Clinic": "0",
        "Hospital": "1",
        "ST": "0",
        "VAC": "0",
        "Latitude": "1.4600801",
        "Longitude": "103.7469025",
        "Address": "Johor Bahru\nJohor Bahru, Johor\n80100 Johor Bahru\nJohor",
        "Contact": "07-2231666",
        "State": "Johor"
    },
    {
        "Name": "Hospital Segamat",
        "Clinic": "0",
        "Hospital": "1",
        "ST": "0",
        "VAC": "0",
        "Latitude": "2.49289925",
        "Longitude": "102.8593043",
        "Address": "KM 6 Jalan Genuang,\nSegamat, Johor\n85000 Segamat\nJohor",
        "Contact": "07-9433333",
        "State": "Johor"
    },
    {
        "Name": "Hospital Baling",
        "Clinic": "0",
        "Hospital": "1",
        "ST": "0",
        "VAC": "0",
        "Latitude": "5.67836775",
        "Longitude": "100.9266299",
        "Address": "Jala Hospital\nBaling, Kedah\n09100 Baling\nKedah",
        "Contact": "04-4701333",
        "State": "Kedah"
    },
    {
        "Name": "Hospital Sultan Abdul Halim",
        "Clinic": "0",
        "Hospital": "1",
        "ST": "0",
        "VAC": "0",
        "Latitude": "5.6704715",
        "Longitude": "100.5167792",
        "Address": "Jalan Lencongan Timur Bandar Amanjaya, Sungai Petani\nSungai Petani, Kedah\n08000 Sungai Petani\nKedah",
        "Contact": "04-4457333",
        "State": "Kedah"
    },
    {
        "Name": "Hospital Sultanah Bahiyah",
        "Clinic": "0",
        "Hospital": "1",
        "ST": "0",
        "VAC": "0",
        "Latitude": "6.14906395",
        "Longitude": "100.4067648",
        "Address": "KM 6, Jln Langgar, Alor Setar\nAlor Setar, Kedah\n05460 Alor Setar\nKedah",
        "Contact": "04-7406233",
        "State": "Kedah"
    },
    {
        "Name": "Hospital Jitra",
        "Clinic": "0",
        "Hospital": "1",
        "ST": "0",
        "VAC": "0",
        "Latitude": "6.2788378",
        "Longitude": "100.4179074",
        "Address": "Jalan Changlun, Jitra Kedah\nJitra, Kedah\n06000 Jitra\nKedah",
        "Contact": "04-9174333",
        "State": "Kedah"
    },
    {
        "Name": "Hospital Kulim",
        "Clinic": "0",
        "Hospital": "1",
        "ST": "0",
        "VAC": "0",
        "Latitude": "5.390833",
        "Longitude": "100.573688",
        "Address": "Jalan Mahang, Kulim\nKulim, Kedah\n09000 Kulim\nKedah",
        "Contact": "04-4272733",
        "State": "Kedah"
    },
    {
        "Name": "Hospital Langkawi",
        "Clinic": "0",
        "Hospital": "1",
        "ST": "0",
        "VAC": "0",
        "Latitude": "6.3251837",
        "Longitude": "99.79688974",
        "Address": "Bukit Tekuh,Jalan Padang Maksirat\nLangkawi, Kedah\n07000 Langkawi\nKedah",
        "Contact": "04-9665333",
        "State": "Kedah"
    },
    {
        "Name": "Hospital Kuala Nerang",
        "Clinic": "0",
        "Hospital": "1",
        "ST": "0",
        "VAC": "0",
        "Latitude": "6.2511961",
        "Longitude": "100.6097121",
        "Address": "Kuala Nerang\nKuala Nerang, Kedah\n06300 Kuala Nerang\nKedah",
        "Contact": "04-7867333",
        "State": "Kedah"
    },
    {
        "Name": "Hospital Sik",
        "Clinic": "0",
        "Hospital": "1",
        "ST": "0",
        "VAC": "0",
        "Latitude": "5.8188544",
        "Longitude": "100.7442773",
        "Address": "08200 Sik\nSik, Kedah\n08200 Sik\nKedah",
        "Contact": "04-4695333",
        "State": "Kedah"
    },
    {
        "Name": "Hospital Yan",
        "Clinic": "0",
        "Hospital": "1",
        "ST": "0",
        "VAC": "0",
        "Latitude": "5.8197935",
        "Longitude": "100.3848697",
        "Address": "Batu 25 Jalan Yan\nYan, Kedah\n06900 Yan\nKedah",
        "Contact": "04-4655333",
        "State": "Kedah"
    },
    {
        "Name": "Hospital Gua Musang",
        "Clinic": "0",
        "Hospital": "1",
        "ST": "0",
        "VAC": "0",
        "Latitude": "4.8595653",
        "Longitude": "101.9547287",
        "Address": "Bandar Baru\nGua Musang, Kelantan\n18300 Gua Musang\nKelantan",
        "Contact": "09-9121133",
        "State": "Kelantan"
    },
    {
        "Name": "Hospital Raja Perempuan Zainab II",
        "Clinic": "0",
        "Hospital": "1",
        "ST": "0",
        "VAC": "0",
        "Latitude": "6.1245583",
        "Longitude": "102.2456798",
        "Address": "Jalan Hospital\nKota Bharu, Kelantan\n15000 Kota Bharu\nKelantan",
        "Contact": "09-7452000",
        "State": "Kelantan"
    },
    {
        "Name": "Hospital Jeli",
        "Clinic": "0",
        "Hospital": "1",
        "ST": "0",
        "VAC": "0",
        "Latitude": "5.7006097",
        "Longitude": "101.8436705",
        "Address": "17600 Jeli\nJeli, Kelantan\n17600 Jeli\nKelantan",
        "Contact": "09-9440092",
        "State": "Kelantan"
    },
    {
        "Name": "Hospital Machang",
        "Clinic": "0",
        "Hospital": "1",
        "ST": "0",
        "VAC": "0",
        "Latitude": "5.7635046",
        "Longitude": "102.2260949",
        "Address": "Jalan Pasir Puteh\nMachang, Kelantan\n18500 Machang\nKelantan",
        "Contact": "09-9741300\/301",
        "State": "Kelantan"
    },
    {
        "Name": "Hospital Sultan Ismail Petra",
        "Clinic": "0",
        "Hospital": "1",
        "ST": "0",
        "VAC": "0",
        "Latitude": "5.4934342",
        "Longitude": "102.2227715",
        "Address": "KM 6, Jalan Kuala Krai - Gua Musang\n\n18000 Kuala Krai\nKelantan",
        "Contact": "09-09611666",
        "State": "Kelantan"
    },
    {
        "Name": "Hospital Tanah Merah",
        "Clinic": "0",
        "Hospital": "1",
        "ST": "0",
        "VAC": "0",
        "Latitude": "5.809193",
        "Longitude": "102.1554959",
        "Address": "17500 Tanah Merah\nTanah Merah, Kelantan\n17500 Tanah Merah\nKelantan",
        "Contact": "09-9545000",
        "State": "Kelantan"
    },
    {
        "Name": "Hospital Pasir Mas",
        "Clinic": "0",
        "Hospital": "1",
        "ST": "0",
        "VAC": "0",
        "Latitude": "6.0139583",
        "Longitude": "102.1183317",
        "Address": "Jalan Meranti\nPasir Mas, Kelantan\n17000 Pasir Mas\nKelantan",
        "Contact": "09-7932300",
        "State": "Kelantan"
    },
    {
        "Name": "Hospital Tengku Anis",
        "Clinic": "0",
        "Hospital": "1",
        "ST": "0",
        "VAC": "0",
        "Latitude": "5.83295195",
        "Longitude": "102.386766",
        "Address": "Jalan Pasir Puteh\nPasir Puteh, Kelantan\n16800 Pasir Puteh\nKelantan",
        "Contact": "09-7843333",
        "State": "Kelantan"
    },
    {
        "Name": "Hospital Tumpat",
        "Clinic": "0",
        "Hospital": "1",
        "ST": "0",
        "VAC": "0",
        "Latitude": "6.1899668",
        "Longitude": "102.1575846",
        "Address": "Jalan Kelaburan\nTumpat, Kelantan\n62000 Tumpat\nKelantan",
        "Contact": "09-7263000",
        "State": "Kelantan"
    },
    {
        "Name": "Hospital Alor Gajah",
        "Clinic": "0",
        "Hospital": "1",
        "ST": "0",
        "VAC": "0",
        "Latitude": "2.3969616",
        "Longitude": "102.2006516",
        "Address": "Pejabat Hospital, Hospital Alor Gajah\nAlor Gajah, Melaka\n78000 Alor Gajah\nMelaka",
        "Contact": "06-5562333",
        "State": "Melaka"
    },
    {
        "Name": "Hospital Jasin",
        "Clinic": "0",
        "Hospital": "1",
        "ST": "0",
        "VAC": "0",
        "Latitude": "2.3038942",
        "Longitude": "102.4303433",
        "Address": "77000 Jasin\nJasin, Melaka\n77000 Jasin\nMelaka",
        "Contact": "06-5294262",
        "State": "Melaka"
    },
    {
        "Name": "Hospital Melaka",
        "Clinic": "0",
        "Hospital": "1",
        "ST": "0",
        "VAC": "0",
        "Latitude": "2.3293744",
        "Longitude": "102.2880962",
        "Address": "Jalan Mufti Haji Khalil\nMelaka, Melaka\n75400 Melaka\nMelaka",
        "Contact": "06-2892344",
        "State": "Melaka"
    },
    {
        "Name": "Hospital Jelebu",
        "Clinic": "0",
        "Hospital": "1",
        "ST": "0",
        "VAC": "0",
        "Latitude": "3.0366264",
        "Longitude": "102.1179206",
        "Address": "71600 Jelebu\nJelebu, Negeri Sembilan\n71600 Jelebu\nNegeri Sembilan",
        "Contact": "06-6136355",
        "State": "Negeri Sembilan"
    },
    {
        "Name": "Hospital Jempol",
        "Clinic": "0",
        "Hospital": "1",
        "ST": "0",
        "VAC": "0",
        "Latitude": "2.90292175",
        "Longitude": "102.4075986",
        "Address": "Bandar Seri Jempol\nBandar Seri Jempol, Negeri Sembilan\n72120 Bandar Seri Jempol\nNegeri Sembilan",
        "Contact": "06-4592000",
        "State": "Negeri Sembilan"
    },
    {
        "Name": "Hospital Port Dickson",
        "Clinic": "0",
        "Hospital": "1",
        "ST": "0",
        "VAC": "0",
        "Latitude": "2.47802185",
        "Longitude": "101.8562482",
        "Address": "KM 11, Jalan Pantai\nPort Dickson, Negeri Sembilan\n71050 Port Dickson\nNegeri Sembilan",
        "Contact": "06-6487333",
        "State": "Negeri Sembilan"
    },
    {
        "Name": "Hospital Tampin",
        "Clinic": "0",
        "Hospital": "1",
        "ST": "0",
        "VAC": "0",
        "Latitude": "2.48596225",
        "Longitude": "102.2317773",
        "Address": "Jalan Haji Ahmad Zainuddin, Tampin\nTampin, Negeri Sembilan\n73009 Tampin\nNegeri Sembilan",
        "Contact": "06-4411511",
        "State": "Negeri Sembilan"
    },
    {
        "Name": "Hospital Tuanku Ampuan Najihah",
        "Clinic": "0",
        "Hospital": "1",
        "ST": "0",
        "VAC": "0",
        "Latitude": "2.73269285",
        "Longitude": "102.2312125",
        "Address": "KM 3 Jalan Melang\nKuala Pilah, Negeri Sembilan\n72000 Kuala Pilah\nNegeri Sembilan",
        "Contact": "06-4818001",
        "State": "Negeri Sembilan"
    },
    {
        "Name": "Hospital Tuanku Ja'afar Seremban",
        "Clinic": "0",
        "Hospital": "1",
        "ST": "0",
        "VAC": "0",
        "Latitude": "2.7091896",
        "Longitude": "101.9439604",
        "Address": "Jalan Rasah\nSeremban, Negeri Sembilan\n70300 Seremban\nNegeri Sembilan",
        "Contact": "06-7623333",
        "State": "Negeri Sembilan"
    },
    {
        "Name": "Hospital Bentong",
        "Clinic": "0",
        "Hospital": "1",
        "ST": "0",
        "VAC": "0",
        "Latitude": "3.52631975",
        "Longitude": "101.9057997",
        "Address": "28700 Bentong\nBentong, Pahang\n28700 Bentong\nPahang",
        "Contact": "09-2223333",
        "State": "Pahang"
    },
    {
        "Name": "Hospital Sultanah Hajjah Kalsom",
        "Clinic": "0",
        "Hospital": "1",
        "ST": "0",
        "VAC": "0",
        "Latitude": "4.46682435",
        "Longitude": "101.3910119",
        "Address": "Tanah Rata,\nCameron Highlands, Pahang\n39000 Cameron Highlands\nPahang",
        "Contact": "05-4913333",
        "State": "Pahang"
    },
    {
        "Name": "Hospital Tengku Ampuan Afzan",
        "Clinic": "0",
        "Hospital": "1",
        "ST": "0",
        "VAC": "0",
        "Latitude": "3.80029645",
        "Longitude": "103.3210469",
        "Address": "Jalan Air Putih\nKuantan, Pahang\n25100 Kuantan\nPahang",
        "Contact": "09-5133333",
        "State": "Pahang"
    },
    {
        "Name": "Hospital Jerantut",
        "Clinic": "0",
        "Hospital": "1",
        "ST": "0",
        "VAC": "0",
        "Latitude": "3.9366586",
        "Longitude": "102.3719554",
        "Address": "27000 Jerantut\nJerantut, Pahang\n27000 Jerantut\nPahang",
        "Contact": "09-2663333",
        "State": "Pahang"
    },
    {
        "Name": "Hospital Jengka",
        "Clinic": "0",
        "Hospital": "1",
        "ST": "0",
        "VAC": "0",
        "Latitude": "3.7671652",
        "Longitude": "102.5480747",
        "Address": "26400 Bandar Jengka\nMaran, Pahang\n26400 Maran\nPahang",
        "Contact": "09-4662333",
        "State": "Pahang"
    },
    {
        "Name": "Hospital Kuala Lipis",
        "Clinic": "0",
        "Hospital": "1",
        "ST": "0",
        "VAC": "0",
        "Latitude": "4.1831675",
        "Longitude": "102.0549485",
        "Address": "27200 K.Lipis\nKuala Lipis, Pahang\n27200 Kuala Lipis\nPahang",
        "Contact": "09-3123333",
        "State": "Pahang"
    },
    {
        "Name": "Hospital Raub",
        "Clinic": "0",
        "Hospital": "1",
        "ST": "0",
        "VAC": "0",
        "Latitude": "3.7912608",
        "Longitude": "101.8534912",
        "Address": "Jalan Tengku Abd Samad\nRaub, Pahang\n27600 Raub\nPahang",
        "Contact": "09-3553333",
        "State": "Pahang"
    },
    {
        "Name": "Hospital Pekan",
        "Clinic": "0",
        "Hospital": "1",
        "ST": "0",
        "VAC": "0",
        "Latitude": "3.501562",
        "Longitude": "103.3787068",
        "Address": "26600 Pekan\nPekan, Pahang\n26600 Pekan\nPahang",
        "Contact": "09-4223333",
        "State": "Pahang"
    },
    {
        "Name": "Hospital Muadzam Shah",
        "Clinic": "0",
        "Hospital": "1",
        "ST": "0",
        "VAC": "0",
        "Latitude": "3.0645499",
        "Longitude": "103.0813444",
        "Address": "26700 Muadzam Shah\nRompin, Pahang\n26700 Rompin\nPahang",
        "Contact": "09-4523333",
        "State": "Pahang"
    },
    {
        "Name": "Hospital Sultan Hj Ahmad Shah",
        "Clinic": "0",
        "Hospital": "1",
        "ST": "0",
        "VAC": "0",
        "Latitude": "",
        "Longitude": "",
        "Address": "Jalan Maran\nTemerloh, Pahang\n28000 Temerloh\nPahang",
        "Contact": "09-2955333",
        "State": "Pahang"
    },
    {
        "Name": "Hospital Tapah",
        "Clinic": "0",
        "Hospital": "1",
        "ST": "0",
        "VAC": "0",
        "Latitude": "4.20077805",
        "Longitude": "101.2583681",
        "Address": "Jalan Temoh\nTapah, Perak\n35000 Tapah\nPerak",
        "Contact": "05-4011333",
        "State": "Perak"
    },
    {
        "Name": "Hospital Slim River",
        "Clinic": "0",
        "Hospital": "1",
        "ST": "0",
        "VAC": "0",
        "Latitude": "3.8387909",
        "Longitude": "101.4046742",
        "Address": "\n\n35800 Slim River\nPerak",
        "Contact": "05-4508000",
        "State": "Perak"
    },
    {
        "Name": "Hospital Gerik",
        "Clinic": "0",
        "Hospital": "1",
        "ST": "0",
        "VAC": "0",
        "Latitude": "5.42941015",
        "Longitude": "101.1271865",
        "Address": "Jalan Intan\nGrik, Perak\n33000 Grik\nPerak",
        "Contact": "05-7911333",
        "State": "Perak"
    },
    {
        "Name": "Hospital Teluk Intan",
        "Clinic": "0",
        "Hospital": "1",
        "ST": "0",
        "VAC": "0",
        "Latitude": "4.00297885",
        "Longitude": "101.0389389",
        "Address": "Jalan Changkat Jong",
        "Contact": "Intan, Perak",
        "State": "Jalan Changkat Jong"
    },
    {
        "Name": "Hospital Parit Buntar",
        "Clinic": "0",
        "Hospital": "1",
        "ST": "0",
        "VAC": "0",
        "Latitude": "5.13038995",
        "Longitude": "100.4833518",
        "Address": "Jalan Sempadan\nParit Buntar, Perak\n34200 Parit Buntar\nPerak",
        "Contact": "05-7163333",
        "State": "Perak"
    },
    {
        "Name": "Hospital Batu Gajah",
        "Clinic": "0",
        "Hospital": "1",
        "ST": "0",
        "VAC": "0",
        "Latitude": "4.4797498",
        "Longitude": "101.0348005",
        "Address": "Jalan Changkat\nBatu Gajah, Perak\n31000 Batu Gajah\nPerak",
        "Contact": "05-3663333",
        "State": "Perak"
    },
    {
        "Name": "Hospital Kuala Kangsar",
        "Clinic": "0",
        "Hospital": "1",
        "ST": "0",
        "VAC": "0",
        "Latitude": "4.77373595",
        "Longitude": "100.9307423",
        "Address": "Jalan Sultan Idris Shah 1\nKuala Kangsar, Perak\n33000 Kuala Kangsar\nPerak",
        "Contact": "05-7763333",
        "State": "Perak"
    },
    {
        "Name": "Hospital Kampar",
        "Clinic": "0",
        "Hospital": "1",
        "ST": "0",
        "VAC": "0",
        "Latitude": "4.3121959",
        "Longitude": "101.1569422",
        "Address": "Jalan Hospital\nKampar, Perak\n31500 Kampar\nPerak",
        "Contact": "05-4653333",
        "State": "Perak"
    },
    {
        "Name": "Hospital Raja Permaisuri Bainun",
        "Clinic": "0",
        "Hospital": "1",
        "ST": "0",
        "VAC": "0",
        "Latitude": "4.6045136",
        "Longitude": "101.0906947",
        "Address": "Jalan Hospital\nIpoh, Perak\n30400 Ipoh\nPerak",
        "Contact": "05-2085000 dan 05-2086000",
        "State": "Perak"
    },
    {
        "Name": "Hospital Taiping",
        "Clinic": "0",
        "Hospital": "1",
        "ST": "0",
        "VAC": "0",
        "Latitude": "4.8508504",
        "Longitude": "100.734323",
        "Address": "Jalan Taming Sari\nTaiping, Perak\n34000 Taiping\nPerak",
        "Contact": "05-8204000",
        "State": "Perak"
    },
    {
        "Name": "Hospital Sungai Siput",
        "Clinic": "0",
        "Hospital": "1",
        "ST": "0",
        "VAC": "0",
        "Latitude": "4.82845485",
        "Longitude": "101.0560169",
        "Address": "Jalan Felda Lasah\nSungai Siput, Perak\n31100 Sungai Siput\nPerak",
        "Contact": "05-5983333",
        "State": "Perak"
    },
    {
        "Name": "Hospital Selama",
        "Clinic": "0",
        "Hospital": "1",
        "ST": "0",
        "VAC": "0",
        "Latitude": "5.2136434",
        "Longitude": "100.6862381",
        "Address": "Jalan Taiping\nSelama, Perak\n34100 Selama\nPerak",
        "Contact": "05-8394233",
        "State": "Perak"
    },
    {
        "Name": "Hospital Seri Manjung",
        "Clinic": "0",
        "Hospital": "1",
        "ST": "0",
        "VAC": "0",
        "Latitude": "4.1847575",
        "Longitude": "100.6608835",
        "Address": "Seri Manjung\n\n32040 Seri Manjung\nPerak",
        "Contact": "05-689 6600",
        "State": "Perak"
    },
    {
        "Name": "Hospital Changkat Melintang",
        "Clinic": "0",
        "Hospital": "1",
        "ST": "0",
        "VAC": "0",
        "Latitude": "4.31273435",
        "Longitude": "100.9103927",
        "Address": "Lambor Kanan,Parit\nBota, Perak\n32900 Bota\nPerak",
        "Contact": "05-3761333",
        "State": "Perak"
    },
    {
        "Name": "Hospital Tuanku Fauziah",
        "Clinic": "0",
        "Hospital": "1",
        "ST": "0",
        "VAC": "0",
        "Latitude": "",
        "Longitude": "",
        "Address": "Jalan Kolam, 01000 Kangar\nKangar, Perlis\n01000 Kangar\nPerlis",
        "Contact": "04-9738000",
        "State": "Perlis"
    },
    {
        "Name": "Hospital Balik Pulau",
        "Clinic": "0",
        "Hospital": "1",
        "ST": "0",
        "VAC": "0",
        "Latitude": "5.3499003",
        "Longitude": "100.2329524",
        "Address": "Balik Pulau\nBalik Pulau, Pulau Pinang\n11000 Balik Pulau\nPulau Pinang",
        "Contact": "04-8669333",
        "State": "Pulau Pinang"
    },
    {
        "Name": "Hospital Sungai Bakap",
        "Clinic": "0",
        "Hospital": "1",
        "ST": "0",
        "VAC": "0",
        "Latitude": "5.2193953",
        "Longitude": "100.4972554",
        "Address": "Sungai Jawi, Seberang Perai Selatan\nSungai Jawi, Pulau Pinang\n14200 Sungai Jawi\nPulau Pinang",
        "Contact": "04-5824333",
        "State": "Pulau Pinang"
    },
    {
        "Name": "Hospital Seberang Jaya",
        "Clinic": "0",
        "Hospital": "1",
        "ST": "0",
        "VAC": "0",
        "Latitude": "5.39403335",
        "Longitude": "100.4082034",
        "Address": "Jln Tun Hussein Onn, Perai\nPerai, Pulau Pinang\n13700 Perai\nPulau Pinang",
        "Contact": "04-3827333",
        "State": "Pulau Pinang"
    },
    {
        "Name": "Hospital Bukit Mertajam",
        "Clinic": "0",
        "Hospital": "1",
        "ST": "0",
        "VAC": "0",
        "Latitude": "5.3591999",
        "Longitude": "100.4638517",
        "Address": "Jalan Kulim, Bukit Mertajam\nBukit Mertajam, Pulau Pinang\n14000 Bukit Mertajam\nPulau Pinang",
        "Contact": "04-5497333",
        "State": "Pulau Pinang"
    },
    {
        "Name": "Hospital Pulau Pinang",
        "Clinic": "0",
        "Hospital": "1",
        "ST": "0",
        "VAC": "0",
        "Latitude": "5.4170117",
        "Longitude": "100.3114428",
        "Address": "Jalan Residensi\nPulau Pinang, Pulau Pinang\n10990 Pulau Pinang\nPulau Pinang",
        "Contact": "04-2225333",
        "State": "Pulau Pinang"
    },
    {
        "Name": "Hospital Kepala Batas",
        "Clinic": "0",
        "Hospital": "1",
        "ST": "0",
        "VAC": "0",
        "Latitude": "5.5113154",
        "Longitude": "100.4380606",
        "Address": "Jalan Bertam, Kepala Batas\nKepala Batas, Pulau Pinang\n13200 Kepala Batas\nPulau Pinang",
        "Contact": "04-5793333",
        "State": "Pulau Pinang"
    },
    {
        "Name": "Hospital Beaufort",
        "Clinic": "0",
        "Hospital": "1",
        "ST": "0",
        "VAC": "0",
        "Latitude": "5.3509606",
        "Longitude": "115.7405925",
        "Address": "Peti Surat 40\nBeaufort, Sabah\n89807 Beaufort\nSabah",
        "Contact": "087-212333",
        "State": "Sabah"
    },
    {
        "Name": "Hospital Beluran",
        "Clinic": "0",
        "Hospital": "1",
        "ST": "0",
        "VAC": "0",
        "Latitude": "5.8932452",
        "Longitude": "117.5550515",
        "Address": "Karung Berkunci No : 02\nBeluran, Sabah\n90109 Beluran\nSabah",
        "Contact": "089-511233\/333",
        "State": "Sabah"
    },
    {
        "Name": "Hospital Keningau",
        "Clinic": "0",
        "Hospital": "1",
        "ST": "0",
        "VAC": "0",
        "Latitude": "5.3708933",
        "Longitude": "116.1819414",
        "Address": "Peti Surat 11\nKeningau, Sabah\n89007 Keningau\nSabah",
        "Contact": "087-313000",
        "State": "Sabah"
    },
    {
        "Name": "Hospital Kinabatangan",
        "Clinic": "0",
        "Hospital": "1",
        "ST": "0",
        "VAC": "0",
        "Latitude": "5.588993",
        "Longitude": "117.8466525",
        "Address": "W.D.T 200\nKinabatangan, Sabah\n90020 Kinabatangan\nSabah",
        "Contact": "089-561858",
        "State": "Sabah"
    },
    {
        "Name": "Hospital Queen Elizabeth II",
        "Clinic": "0",
        "Hospital": "1",
        "ST": "0",
        "VAC": "0",
        "Latitude": "",
        "Longitude": "",
        "Address": "Lorong Bersatu, Jalan Damai Luyang, Kota Kinabalu\nKota Kinabalu, Sabah\n88300 Kota Kinabalu\nSabah",
        "Contact": "088-245249",
        "State": "Sabah"
    },
    {
        "Name": "Hospital Kota Belud",
        "Clinic": "0",
        "Hospital": "1",
        "ST": "0",
        "VAC": "0",
        "Latitude": "6.3497629",
        "Longitude": "116.4292891",
        "Address": "Peti Surat 159\nKota Belud, Sabah\n89158 Kota Belud\nSabah",
        "Contact": "088-976333",
        "State": "Sabah"
    },
    {
        "Name": "Hospital Wanita dan Kanak-Kanak Sabah",
        "Clinic": "0",
        "Hospital": "1",
        "ST": "0",
        "VAC": "0",
        "Latitude": "6.0140485",
        "Longitude": "116.1195617",
        "Address": "Karung Berkunci 187\nKota Kinabalu, Sabah\n88996 Kota Kinabalu\nSabah",
        "Contact": "088-522600",
        "State": "Sabah"
    },
    {
        "Name": "Hospital Kota Marudu",
        "Clinic": "0",
        "Hospital": "1",
        "ST": "0",
        "VAC": "0",
        "Latitude": "6.45735655",
        "Longitude": "116.7739544",
        "Address": "Peti Surat 255\nKota Marudu, Sabah\n89108 Kota Marudu\nSabah",
        "Contact": "088-661984",
        "State": "Sabah"
    },
    {
        "Name": "Hospital Queen Elizabeth",
        "Clinic": "0",
        "Hospital": "1",
        "ST": "0",
        "VAC": "0",
        "Latitude": "5.956374",
        "Longitude": "116.0716771",
        "Address": "Karung Berkunci N0.2029\nKota Kinabalu, Sabah\n88586 Kota Kinabalu\nSabah",
        "Contact": "088-517555",
        "State": "Sabah"
    },
    {
        "Name": "Hospital Kuala Penyu",
        "Clinic": "0",
        "Hospital": "1",
        "ST": "0",
        "VAC": "0",
        "Latitude": "5.5675507",
        "Longitude": "115.6008534",
        "Address": "W.D.T. 35\nKuala Penyu, Sabah\n89740 Kuala Penyu\nSabah",
        "Contact": "087-853100",
        "State": "Sabah"
    },
    {
        "Name": "Hospital Kudat",
        "Clinic": "0",
        "Hospital": "1",
        "ST": "0",
        "VAC": "0",
        "Latitude": "6.9077929",
        "Longitude": "116.83781",
        "Address": "Peti Surat 22\nKudat, Sabah\n89057 Kudat\nSabah",
        "Contact": "088-613333",
        "State": "Sabah"
    },
    {
        "Name": "Hospital Kunak",
        "Clinic": "0",
        "Hospital": "1",
        "ST": "0",
        "VAC": "0",
        "Latitude": "4.6833333",
        "Longitude": "118.25",
        "Address": "W.D.T. 150\nKunak, Sabah\n91209 Kunak\nSabah",
        "Contact": "089-894100",
        "State": "Sabah"
    },
    {
        "Name": "Hospital Lahad Datu",
        "Clinic": "0",
        "Hospital": "1",
        "ST": "0",
        "VAC": "0",
        "Latitude": "5.0215726",
        "Longitude": "118.3275533",
        "Address": "Peti Surat 60065\nLahad Datu, Sabah\n91110 Lahad Datu\nSabah",
        "Contact": "089-895111",
        "State": "Sabah"
    },
    {
        "Name": "Hospital Papar",
        "Clinic": "0",
        "Hospital": "1",
        "ST": "0",
        "VAC": "0",
        "Latitude": "5.7330227",
        "Longitude": "115.9320971",
        "Address": "Peti Surat No. 6,\nPapar, Sabah\n89607 Papar\nSabah",
        "Contact": "088-913333",
        "State": "Sabah"
    },
    {
        "Name": "Hospital Ranau",
        "Clinic": "0",
        "Hospital": "1",
        "ST": "0",
        "VAC": "0",
        "Latitude": "5.95407175",
        "Longitude": "116.6707945",
        "Address": "Peti Surat 65\nRanau, Sabah\n89300 Ranau\nSabah",
        "Contact": "088-875266",
        "State": "Sabah"
    },
    {
        "Name": "Hospital Pitas",
        "Clinic": "0",
        "Hospital": "1",
        "ST": "0",
        "VAC": "0",
        "Latitude": "6.7303182",
        "Longitude": "117.054365",
        "Address": "Peti Surat 88\nPitas, Sabah\n89100 Pitas\nSabah",
        "Contact": "088-676100",
        "State": "Sabah"
    },
    {
        "Name": "Hospital Semporna",
        "Clinic": "0",
        "Hospital": "1",
        "ST": "0",
        "VAC": "0",
        "Latitude": "4.4829151",
        "Longitude": "118.6042341",
        "Address": "Peti Surat 80\nSemporna, Sabah\n91307 Semporna\nSabah",
        "Contact": "089-781522",
        "State": "Sabah"
    },
    {
        "Name": "Hospital Duchess Of Kent",
        "Clinic": "0",
        "Hospital": "1",
        "ST": "0",
        "VAC": "0",
        "Latitude": "5.8582896",
        "Longitude": "118.1027544",
        "Address": "KM 3.2, Jalan Utara\nSandakan, Sabah\n90000 Sandakan\nSabah",
        "Contact": "089-248 600                     Talian_Kecemasan:089-255 022",
        "State": "Sabah"
    },
    {
        "Name": "Hospital Tambunan",
        "Clinic": "0",
        "Hospital": "1",
        "ST": "0",
        "VAC": "0",
        "Latitude": "5.6688001",
        "Longitude": "116.3655408",
        "Address": "Peti Surat 10\nTambunan, Sabah\n89657 Tambunan\nSabah",
        "Contact": "087-774333",
        "State": "Sabah"
    },
    {
        "Name": "Hospital Sipitang",
        "Clinic": "0",
        "Hospital": "1",
        "ST": "0",
        "VAC": "0",
        "Latitude": "5.0761521",
        "Longitude": "115.54973",
        "Address": "Peti Surat 250\nSipitang, Sabah\n89857 Sipitang\nSabah",
        "Contact": "087-822296",
        "State": "Sabah"
    },
    {
        "Name": "Hospital Tawau",
        "Clinic": "0",
        "Hospital": "1",
        "ST": "0",
        "VAC": "0",
        "Latitude": "4.2600246",
        "Longitude": "117.9145689",
        "Address": "Peti Surat 80\nTawau, Sabah\n91007 Tawau\nSabah",
        "Contact": "089-773533",
        "State": "Sabah"
    },
    {
        "Name": "Hospital Tenom",
        "Clinic": "0",
        "Hospital": "1",
        "ST": "0",
        "VAC": "0",
        "Latitude": "5.1273517",
        "Longitude": "115.9476519",
        "Address": "Peti surat 97\nTenom, Sabah\n89907 Tenom\nSabah",
        "Contact": "087-735577",
        "State": "Sabah"
    },
    {
        "Name": "Hospital Tuaran",
        "Clinic": "0",
        "Hospital": "1",
        "ST": "0",
        "VAC": "0",
        "Latitude": "6.1762851",
        "Longitude": "116.2328137",
        "Address": "Peti surat 996, 89207 Tuaran Sabah\nTuaran, Sabah\n89207 Tuaran\nSabah",
        "Contact": "088-788317",
        "State": "Sabah"
    },
    {
        "Name": "Hospital Bau",
        "Clinic": "0",
        "Hospital": "1",
        "ST": "0",
        "VAC": "0",
        "Latitude": "1.429467",
        "Longitude": "110.1426906",
        "Address": "Batu 1 \u00bd,  Jalan Bau-Lundu\nBau, Sarawak\n94000 Bau\nSarawak",
        "Contact": "082-763711",
        "State": "Sarawak"
    },
    {
        "Name": "Hospital Bintulu",
        "Clinic": "0",
        "Hospital": "1",
        "ST": "0",
        "VAC": "0",
        "Latitude": "3.230022",
        "Longitude": "113.100403",
        "Address": "Jalan Nyabau\nBintulu, Sarawak\n97000 Bintulu\nSarawak",
        "Contact": "086-255899",
        "State": "Sarawak"
    },
    {
        "Name": "Hospital Betong",
        "Clinic": "0",
        "Hospital": "1",
        "ST": "0",
        "VAC": "0",
        "Latitude": "1.3744174",
        "Longitude": "111.5737416",
        "Address": "Jalan Betong\nBetong, Sarawak\n95707 Betong\nSarawak",
        "Contact": "083-472821",
        "State": "Sarawak"
    },
    {
        "Name": "Hospital Daro",
        "Clinic": "0",
        "Hospital": "1",
        "ST": "0",
        "VAC": "0",
        "Latitude": "2.5225347",
        "Longitude": "111.4132704",
        "Address": "Jalan Itol\nDaro, Sarawak\n96200 Daro\nSarawak",
        "Contact": "084-823620",
        "State": "Sarawak"
    },
    {
        "Name": "Hospital Dalat",
        "Clinic": "0",
        "Hospital": "1",
        "ST": "0",
        "VAC": "0",
        "Latitude": "2.74441755",
        "Longitude": "111.94648",
        "Address": "Jalan Oya-Dalat\nDalat, Sarawak\n96300 Dalat\nSarawak",
        "Contact": "084-863213",
        "State": "Sarawak"
    },
    {
        "Name": "Hospital Kapit",
        "Clinic": "0",
        "Hospital": "1",
        "ST": "0",
        "VAC": "0",
        "Latitude": "2.0043909",
        "Longitude": "112.9362852",
        "Address": "Jalan Memora\nKapit, Sarawak\n96800 Kapit\nSarawak",
        "Contact": "084-796333",
        "State": "Sarawak"
    },
    {
        "Name": "Hospital Kanowit",
        "Clinic": "0",
        "Hospital": "1",
        "ST": "0",
        "VAC": "0",
        "Latitude": "2.10311585",
        "Longitude": "112.1519602",
        "Address": "Jalan Kanowit\/ Durin\nKanowit, Sarawak\n96700 Kanowit\nSarawak",
        "Contact": "084-752333",
        "State": "Sarawak"
    },
    {
        "Name": "Hospital Rajah Charles Brooke Memorial",
        "Clinic": "0",
        "Hospital": "1",
        "ST": "0",
        "VAC": "0",
        "Latitude": "",
        "Longitude": "",
        "Address": "Bt 13, Jalan Puncak Borneo, Kota Padawan\nKuching, Sarawak\n93250 Kuching\nSarawak",
        "Contact": "082-611123",
        "State": "Sarawak"
    },
    {
        "Name": "Hospital Umum Kuching",
        "Clinic": "0",
        "Hospital": "1",
        "ST": "0",
        "VAC": "0",
        "Latitude": "1.54300515",
        "Longitude": "110.3396604",
        "Address": "Jalan Tun Ahmad Zaidi Adruce\nKuching, Sarawak\n93586 Kuching\nSarawak",
        "Contact": "082-276666",
        "State": "Sarawak"
    },
    {
        "Name": "Hospital Lawas",
        "Clinic": "0",
        "Hospital": "1",
        "ST": "0",
        "VAC": "0",
        "Latitude": "4.8596843",
        "Longitude": "115.4082501",
        "Address": "Jalan Hospital\nLawas, Sarawak\n98850 Lawas\nSarawak",
        "Contact": "085-283781",
        "State": "Sarawak"
    },
    {
        "Name": "Hospital Limbang",
        "Clinic": "0",
        "Hospital": "1",
        "ST": "0",
        "VAC": "0",
        "Latitude": "4.765664",
        "Longitude": "115.0191301",
        "Address": "Jalan Pandaruan\nLimbang, Sarawak\n98700 Limbang\nSarawak",
        "Contact": "085-211200",
        "State": "Sarawak"
    },
    {
        "Name": "Hospital Lundu",
        "Clinic": "0",
        "Hospital": "1",
        "ST": "0",
        "VAC": "0",
        "Latitude": "1.6743129",
        "Longitude": "109.85266",
        "Address": "Jalan Sekambal\nLundu, Sarawak\n94500 Lundu\nSarawak",
        "Contact": "082-735311",
        "State": "Sarawak"
    },
    {
        "Name": "Hospital Miri",
        "Clinic": "0",
        "Hospital": "1",
        "ST": "0",
        "VAC": "0",
        "Latitude": "4.38941345",
        "Longitude": "113.9949122",
        "Address": "Jalan Cahaya\nMiri, Sarawak\n98000 Miri\nSarawak",
        "Contact": "085-420033",
        "State": "Sarawak"
    },
    {
        "Name": "Hospital Marudi",
        "Clinic": "0",
        "Hospital": "1",
        "ST": "0",
        "VAC": "0",
        "Latitude": "4.1793687",
        "Longitude": "114.321109",
        "Address": "Jalan Pungor\nMarudi, Sarawak\n98050 Marudi\nSarawak",
        "Contact": "085-755511",
        "State": "Sarawak"
    },
    {
        "Name": "Hospital Mukah",
        "Clinic": "0",
        "Hospital": "1",
        "ST": "0",
        "VAC": "0",
        "Latitude": "2.9022433",
        "Longitude": "112.0773264",
        "Address": "Jalan Haji Mohamed Pauzi\nMukah, Sarawak\n96400 Mukah\nSarawak",
        "Contact": "084-871333",
        "State": "Sarawak"
    },
    {
        "Name": "Hospital Saratok",
        "Clinic": "0",
        "Hospital": "1",
        "ST": "0",
        "VAC": "0",
        "Latitude": "1.7477089",
        "Longitude": "111.3404994",
        "Address": "KM 1, Jalan Saratok\nSaratok, Sarawak\n95400 Saratok\nSarawak",
        "Contact": "083-436311",
        "State": "Sarawak"
    },
    {
        "Name": "Hospital Serian",
        "Clinic": "0",
        "Hospital": "1",
        "ST": "0",
        "VAC": "0",
        "Latitude": "1.1754279",
        "Longitude": "110.5630877",
        "Address": "94700 Serian\nSerian, Sarawak\n94700 Serian\nSarawak",
        "Contact": "082-874311",
        "State": "Sarawak"
    },
    {
        "Name": "Hospital Sarikei",
        "Clinic": "0",
        "Hospital": "1",
        "ST": "0",
        "VAC": "0",
        "Latitude": "2.1332047",
        "Longitude": "111.4929196",
        "Address": "Jalan Rentap\nSarikei, Sarawak\n96100 Sarikei\nSarawak",
        "Contact": "084-653333",
        "State": "Sarawak"
    },
    {
        "Name": "Hospital Simunjan",
        "Clinic": "0",
        "Hospital": "1",
        "ST": "0",
        "VAC": "0",
        "Latitude": "1.3695436",
        "Longitude": "110.7858804",
        "Address": "Jalan Gunung Ngeli\nSimunjan, Sarawak\n94800 Simunjan\nSarawak",
        "Contact": "082-803984",
        "State": "Sarawak"
    },
    {
        "Name": "Hospital Sibu",
        "Clinic": "0",
        "Hospital": "1",
        "ST": "0",
        "VAC": "0",
        "Latitude": "2.29621295",
        "Longitude": "111.8917523",
        "Address": "Batu 5 \u00bd,  Jalan Ulu Oya\nSibu, Sarawak\n96000 Sibu\nSarawak",
        "Contact": "084-343333",
        "State": "Sarawak"
    },
    {
        "Name": "Hospital Sri Aman",
        "Clinic": "0",
        "Hospital": "1",
        "ST": "0",
        "VAC": "0",
        "Latitude": "1.2344314",
        "Longitude": "111.4624482",
        "Address": "Jalan Hospital\nSri Aman, Sarawak\n95007 Sri Aman\nSarawak",
        "Contact": "083-322151",
        "State": "Sarawak"
    },
    {
        "Name": "Hospital Selayang",
        "Clinic": "0",
        "Hospital": "1",
        "ST": "0",
        "VAC": "0",
        "Latitude": "3.2434232",
        "Longitude": "101.6469641",
        "Address": "Lebuhraya Selayang-Kepong\nBatu Caves, Selangor\n68100 Batu Caves\nSelangor",
        "Contact": "03-61203233",
        "State": "Selangor"
    },
    {
        "Name": "Hospital Sungai Buloh",
        "Clinic": "0",
        "Hospital": "1",
        "ST": "0",
        "VAC": "0",
        "Latitude": "3.2189944",
        "Longitude": "101.5853032",
        "Address": "Jalan Hospital\nSungai Buluh, Selangor\n47000 Sungai Buluh\nSelangor",
        "Contact": "03-61454333",
        "State": "Selangor"
    },
    {
        "Name": "Hospital Ampang",
        "Clinic": "0",
        "Hospital": "1",
        "ST": "0",
        "VAC": "0",
        "Latitude": "3.12810615",
        "Longitude": "101.7639739",
        "Address": "Jalan Mewah Utara\nAmpang, Selangor\n68000 Ampang\nSelangor",
        "Contact": "03-42896000",
        "State": "Selangor"
    },
    {
        "Name": "Hospital Kajang",
        "Clinic": "0",
        "Hospital": "1",
        "ST": "0",
        "VAC": "0",
        "Latitude": "2.9929656",
        "Longitude": "101.7930829",
        "Address": "Jalan Semenyih\nKajang, Selangor\n43000 Kajang\nSelangor",
        "Contact": "03-89133333",
        "State": "Selangor"
    },
    {
        "Name": "Hospital Kuala Kubu Bharu",
        "Clinic": "0",
        "Hospital": "1",
        "ST": "0",
        "VAC": "0",
        "Latitude": "3.5651429",
        "Longitude": "101.6526963",
        "Address": "Jalan Hospital\nKuala Kubu Bharu, Selangor\n44000 Kuala Kubu Bharu\nSelangor",
        "Contact": "03-60641333",
        "State": "Selangor"
    },
    {
        "Name": "Hospital Banting",
        "Clinic": "0",
        "Hospital": "1",
        "ST": "0",
        "VAC": "0",
        "Latitude": "2.80349785",
        "Longitude": "101.4923617",
        "Address": "Jalan Sultan Alam Shah\nBanting, Selangor\n42700 Banting\nSelangor",
        "Contact": "03-31871333",
        "State": "Selangor"
    },
    {
        "Name": "Hospital Tengku Ampuan Rahimah",
        "Clinic": "0",
        "Hospital": "1",
        "ST": "0",
        "VAC": "0",
        "Latitude": "3.01977735",
        "Longitude": "101.4394898",
        "Address": "Jalan Langat,41200 Klang\nKlang, Selangor\n41200 Klang\nSelangor",
        "Contact": "03 3375 7000",
        "State": "Selangor"
    },
    {
        "Name": "Hospital Tanjung Karang",
        "Clinic": "0",
        "Hospital": "1",
        "ST": "0",
        "VAC": "0",
        "Latitude": "3.4248817",
        "Longitude": "101.1764643",
        "Address": "Tanjung Karang\nTanjung Karang, Selangor\n45500 Tanjung Karang\nSelangor",
        "Contact": "03-32698333",
        "State": "Selangor"
    },
    {
        "Name": "Hospital Tengku Ampuan Jemaah",
        "Clinic": "0",
        "Hospital": "1",
        "ST": "0",
        "VAC": "0",
        "Latitude": "3.1621387",
        "Longitude": "101.7000408",
        "Address": "45200 Sabak Bernam\nSabak Bernam, Selangor\n45200 Sabak Bernam\nSelangor",
        "Contact": "03-32163333",
        "State": "Selangor"
    },
    {
        "Name": "Hospital Serdang",
        "Clinic": "0",
        "Hospital": "1",
        "ST": "0",
        "VAC": "0",
        "Latitude": "2.9765999",
        "Longitude": "101.7199822",
        "Address": "Jalan Puchong\nKajang, Selangor\n43000 Kajang\nSelangor",
        "Contact": "03-89475555",
        "State": "Selangor"
    },
    {
        "Name": "Hospital Besut",
        "Clinic": "0",
        "Hospital": "1",
        "ST": "0",
        "VAC": "0",
        "Latitude": "5.72884495",
        "Longitude": "102.493377",
        "Address": "Jalan Pasir Akar, Jerteh\nBesut, Terengganu\n22000 Besut\nTerengganu",
        "Contact": "09-6971130\/09-6971200",
        "State": "Terengganu"
    },
    {
        "Name": "Hospital Dungun",
        "Clinic": "0",
        "Hospital": "1",
        "ST": "0",
        "VAC": "0",
        "Latitude": "4.75227225",
        "Longitude": "103.4142476",
        "Address": "Hospital Dungun\nDungun, Terengganu\n23000 Dungun\nTerengganu",
        "Contact": "09-8483333",
        "State": "Terengganu"
    },
    {
        "Name": "Hospital Hulu Terengganu",
        "Clinic": "0",
        "Hospital": "1",
        "ST": "0",
        "VAC": "0",
        "Latitude": "5.07550145",
        "Longitude": "103.0442831",
        "Address": "Batu 23, Jalan Kuala Berang\nKuala Berang, Terengganu\n21700 Kuala Berang\nTerengganu",
        "Contact": "09-6813333\/6813120",
        "State": "Terengganu"
    },
    {
        "Name": "Hospital Kemaman",
        "Clinic": "0",
        "Hospital": "1",
        "ST": "0",
        "VAC": "0",
        "Latitude": "4.23182595",
        "Longitude": "103.4200921",
        "Address": "Jalan Da' Omar, Cukai\nKemaman, Terengganu\n24000 Kemaman\nTerengganu",
        "Contact": "09-8513333",
        "State": "Terengganu"
    },
    {
        "Name": "Hospital Sultanah Nur Zahirah",
        "Clinic": "0",
        "Hospital": "1",
        "ST": "0",
        "VAC": "0",
        "Latitude": "5.3264573",
        "Longitude": "103.150549",
        "Address": "Jalan Sultan Mahmud, Kuala Terengganu\nKuala Terengganu, Terengganu\n20400 Kuala Terengganu\nTerengganu",
        "Contact": "09-6212121",
        "State": "Terengganu"
    },
    {
        "Name": "Hospital Setiu",
        "Clinic": "0",
        "Hospital": "1",
        "ST": "0",
        "VAC": "0",
        "Latitude": "5.51522715",
        "Longitude": "102.7691637",
        "Address": "Bandar Permaisuri\nSetiu, Terengganu\n22100 Setiu\nTerengganu",
        "Contact": "09-6090333",
        "State": "Terengganu"
    },
    {
        "Name": "Hospital Putrajaya",
        "Clinic": "0",
        "Hospital": "1",
        "ST": "0",
        "VAC": "0",
        "Latitude": "2.9293938",
        "Longitude": "101.6743137",
        "Address": "Pusat Pentadbiran Kerajaan Persekutuan, presint 7\nPutrajaya, WP Putrajaya\n62250 Putrajaya\nWP Putrajaya",
        "Contact": "03-83124200",
        "State": "WP Putrajaya"
    },
    {
        "Name": "Hospital Labuan",
        "Clinic": "0",
        "Hospital": "1",
        "ST": "0",
        "VAC": "0",
        "Latitude": "5.31163015",
        "Longitude": "115.2305803",
        "Address": "Peti Surat 81006\nLabuan, WP Labuan\n87020 Labuan\nWP Labuan",
        "Contact": "087-423922\/ 423919",
        "State": "WP Labuan"
    },
    {
        "Name": "Hospital Kuala Lumpur",
        "Clinic": "0",
        "Hospital": "1",
        "ST": "0",
        "VAC": "0",
        "Latitude": "3.17088895",
        "Longitude": "101.7021401",
        "Address": "Jalan Pahang\nKuala Lumpur, WP Kuala Lumpur\n50586 Kuala Lumpur\nWP Kuala Lumpur",
        "Contact": "03-26155555",
        "State": "WP Kuala Lumpur"
    },
    {
        "Name": "Hospital Permai",
        "Clinic": "0",
        "Hospital": "1",
        "ST": "0",
        "VAC": "0",
        "Latitude": "2.9951878",
        "Longitude": "101.6706501",
        "Address": "Jalan Tampoi\nJohor Bahru, Johor\n81200 Johor Bahru\nJohor",
        "Contact": "07-2373333",
        "State": "Johor"
    },
    {
        "Name": "Hospital Bahagia Ulu Kinta",
        "Clinic": "0",
        "Hospital": "1",
        "ST": "0",
        "VAC": "0",
        "Latitude": "",
        "Longitude": "",
        "Address": "Tanjong Rambutan\nUlu Kinta, Perak\n31250 Ulu Kinta\nPerak",
        "Contact": "05-5332333",
        "State": "Perak"
    },
    {
        "Name": "Hospital Mesra Bukit Padang",
        "Clinic": "0",
        "Hospital": "1",
        "ST": "0",
        "VAC": "0",
        "Latitude": "",
        "Longitude": "",
        "Address": "Peti Surat 11342\nKota Kinabalu, Sabah\n88815 Kota Kinabalu\nSabah",
        "Contact": "088-240984",
        "State": "Sabah"
    },
    {
        "Name": "Hospital Sentosa",
        "Clinic": "0",
        "Hospital": "1",
        "ST": "0",
        "VAC": "0",
        "Latitude": "1.4640562",
        "Longitude": "110.3292597",
        "Address": "Batu 7, Jalan Penenrisen\nKuching, Sarawak\n93250 Kuching\nSarawak",
        "Contact": "082-612321",
        "State": "Sarawak"
    },
    {
        "Name": "Pusat Kawalan Kusta Negara",
        "Clinic": "0",
        "Hospital": "1",
        "ST": "0",
        "VAC": "0",
        "Latitude": "",
        "Longitude": "",
        "Address": "Sungai Buluh\nSungai Buluh, Selangor\n47000 Sungai Buluh\nSelangor",
        "Contact": "03-61561321",
        "State": "Selangor"
    },
    {
        "Name": "Institut Perubatan Respiratori",
        "Clinic": "0",
        "Hospital": "1",
        "ST": "0",
        "VAC": "0",
        "Latitude": "3.17538845",
        "Longitude": "101.6987193",
        "Address": "Jalan Pahang\nKuala Lumpur, WP Kuala Lumpur\n53000 Kuala Lumpur\nWP Kuala Lumpur",
        "Contact": "03-40232966",
        "State": "WP Kuala Lumpur"
    },
    {
        "Name": "Hospital Orang Asli",
        "Clinic": "0",
        "Hospital": "1",
        "ST": "0",
        "VAC": "0",
        "Latitude": "3.2947158",
        "Longitude": "101.7322709",
        "Address": "KM 24, Jalan Pahang Lama, 53100 Gombak, Selangor\n\n53100 Gombak\nSelangor",
        "Contact": "",
        "State": "Selangor"
    },
    {
        "Name": "Institut Kanser Negara",
        "Clinic": "0",
        "Hospital": "1",
        "ST": "0",
        "VAC": "0",
        "Latitude": "2.92710155",
        "Longitude": "101.673969",
        "Address": "No 4, Jalan P7, Presint 7\n62250 Putrajaya\nWP Putrajaya\n\n62250 Putrajaya\nWP Putrajaya",
        "Contact": "03-88925555",
        "State": "WP Putrajaya"
    },
    {
        "Name": "Hospital Rehabilitasi Cheras",
        "Clinic": "0",
        "Hospital": "1",
        "ST": "0",
        "VAC": "0",
        "Latitude": "3.1055365",
        "Longitude": "101.7287875",
        "Address": "Jalan Yaacob Latif, Bandar Tun Razak Cheras 56000 Kuala Lumpur\nWP Kuala Lumpur\n\n56000 Kuala Lumpur\nWP Kuala Lumpur",
        "Contact": "03-91453400",
        "State": "WP Kuala Lumpur"
    },
    {
        "Name": "Hospital Shah Alam",
        "Clinic": "0",
        "Hospital": "1",
        "ST": "0",
        "VAC": "0",
        "Latitude": "3.0709323",
        "Longitude": "101.4898519",
        "Address": "Hospital Shah Alam\nPersiaran Kayangan, Seksyen 7\n40000 Shah Alam\nSelangor\n\n40000 Shah Alam\nSelangor",
        "Contact": "03-5526 3000",
        "State": "Selangor"
    },
    {
        "Name": "Pusat Jantung Sarawak",
        "Clinic": "0",
        "Hospital": "1",
        "ST": "0",
        "VAC": "0",
        "Latitude": "1.48020015",
        "Longitude": "110.4199842",
        "Address": "Jalan Expressway Kota Samarahan\n94300 Samarahan\nSarawak\n\n94300 Samarahan\nSarawak",
        "Contact": "082-668111",
        "State": "Sarawak"
    },
    {
        "Name": "Hospital Rompin",
        "Clinic": "0",
        "Hospital": "1",
        "ST": "0",
        "VAC": "0",
        "Latitude": "2.8245772",
        "Longitude": "103.0993556",
        "Address": "Jalan Kg Kolam Kuala Rompin\n26800 Rompin\nPahang\n\n26800 Rompin\nPahang",
        "Contact": "09-4141305",
        "State": "Pahang"
    },
    {
        "Name": "Hospital Tunku Azizah (Wanita Dan Kanak-Kanak)",
        "Clinic": "0",
        "Hospital": "1",
        "ST": "0",
        "VAC": "0",
        "Latitude": "",
        "Longitude": "",
        "Address": "Jalan Raja Muda Abdul Aziz\nKampung Baru\n50300 Kuala Lumpur\nWP Kuala Lumpur",
        "Contact": "",
        "State": "WP Kuala Lumpur"
    }
]